header:
  stamp:
    sec: 14556
    nanosec: 536000000
  frame_id: base_scan
angle_min: -3.1415998935699463
angle_max: 3.1415998935699463
angle_increment: 0.008738803677260876
angle_min: -3.1415998935699463
angle_max: 3.1415998935699463
angle_increment: 0.008738803677260876
time_increment: 0.0
scan_time: 0.0
range_min: 0.11999999731779099
range_max: 3.5
ranges:
- 0.5376522541046143
- 0.5424605011940002
- 0.5552393198013306
- 0.5562851428985596
- 0.4099694490432739
- 0.39825329184532166
- 0.39762747287750244
- 0.3794045150279999
- 0.40235644578933716
- 0.40017223358154297
- 0.38093817234039307
- 0.38173162937164307
- 0.37909331917762756
- 0.37493714690208435
- 0.3522260785102844
- 0.3627709150314331
- 0.362486332654953
- 0.3499066233634949
- 0.349600225687027
- 0.3441479504108429
- 0.3546695113182068
- 0.3559093773365021
- 0.3451022505760193
- 0.3333614468574524
- 0.3439699709415436
- 0.3244950473308563
- 0.34902244806289673
- 0.37383759021759033
- 0.38689765334129333
- 0.40892931818962097
- 0.432108610868454
- 0.4867212176322937
- 0.4654066264629364
- 0.5018775463104248
- 0.5745445489883423
- 1.3160103559494019
- 1.323710322380066
- 1.3435381650924683
- 1.316046118736267
- 1.3246341943740845
- 1.3081464767456055
- 1.3250415325164795
- 1.3199958801269531
- 1.319305419921875
- 1.3261160850524902
- 1.3200355768203735
- 1.3166215419769287
- 1.322244644165039
- 1.3129724264144897
- 1.3054845333099365
- 1.3063310384750366
- 1.314515471458435
- 1.3325331211090088
- 1.3275115489959717
- 1.3042653799057007
- 1.3219457864761353
- 1.320218801498413
- 1.3135018348693848
- 1.314340591430664
- 1.3280807733535767
- 1.3165805339813232
- 1.3084330558776855
- 1.321824073791504
- 1.3101783990859985
- 1.3387359380722046
- 1.3263477087020874
- 1.3258811235427856
- 1.3447009325027466
- 1.343939185142517
- 1.3325607776641846
- 1.3415189981460571
- 1.3481274843215942
- 1.3483798503875732
- 1.3627516031265259
- 1.3668389320373535
- 1.3665435314178467
- 1.37118661403656
- 1.3666502237319946
- 1.363620400428772
- 1.3568010330200195
- 1.374548316001892
- 1.367755651473999
- 1.388169288635254
- 1.3912785053253174
- 1.3880343437194824
- 1.3793611526489258
- 1.407987356185913
- 1.3904681205749512
- 1.4024097919464111
- 1.4019850492477417
- 1.4233577251434326
- 1.4272328615188599
- 1.413726568222046
- 1.4324195384979248
- 1.4512306451797485
- 1.4253780841827393
- 1.4527925252914429
- 1.4494291543960571
- 1.4682317972183228
- 1.469861626625061
- 1.467629075050354
- 1.4605200290679932
- 1.479551076889038
- 1.4946807622909546
- 1.475423812866211
- 1.5144447088241577
- 1.4958338737487793
- 1.5150192975997925
- 1.5137968063354492
- 1.519653081893921
- 0.6661227345466614
- 0.6655616760253906
- 0.671869695186615
- 0.6683521270751953
- 0.6651608347892761
- 0.6804962754249573
- 0.6718031764030457
- 0.6751676201820374
- 0.6860446333885193
- 0.6735635995864868
- 0.6794102191925049
- 0.6715567111968994
- 0.6756271123886108
- 0.6753323674201965
- 0.6758370399475098
- 0.6882632374763489
- 0.6820554733276367
- 1.68378746509552
- '...'
intensities:
- 0.0
- 0.0
- 0.0
- 0.0
- 0.0
- 0.0
- 0.0
- 0.0
- 0.0
- 0.0
- 0.0
- 0.0
- 0.0
- 0.0
- 0.0
- 0.0
- 0.0
- 0.0
- 0.0
- 0.0
- 0.0
- 0.0
- 0.0
- 0.0
- 0.0
- 0.0
- 0.0
- 0.0
- 0.0
- 0.0
- 0.0
- 0.0
- 0.0
- 0.0
- 0.0
- 0.0
- 0.0
- 0.0
- 0.0
- 0.0
- 0.0
- 0.0
- 0.0
- 0.0
- 0.0
- 0.0
- 0.0
- 0.0
- 0.0
- 0.0
- 0.0
- 0.0
- 0.0
- 0.0
- 0.0
- 0.0
- 0.0
- 0.0
- 0.0
- 0.0
- 0.0
- 0.0
- 0.0
- 0.0
- 0.0
- 0.0
- 0.0
- 0.0
- 0.0
- 0.0
- 0.0
- 0.0
- 0.0
- 0.0
- 0.0
- 0.0
- 0.0
- 0.0
- 0.0
- 0.0
- 0.0
- 0.0
- 0.0
- 0.0
- 0.0
- 0.0
- 0.0
- 0.0
- 0.0
- 0.0
- 0.0
- 0.0
- 0.0
- 0.0
- 0.0
- 0.0
- 0.0
- 0.0
- 0.0
- 0.0
- 0.0
- 0.0
- 0.0
- 0.0
- 0.0
- 0.0
- 0.0
- 0.0
- 0.0
- 0.0
- 0.0
- 0.0
- 0.0
- 0.0
- 0.0
- 0.0
- 0.0
- 0.0
- 0.0
- 0.0
- 0.0
- 0.0
- 0.0
- 0.0
- 0.0
- 0.0
- 0.0
- 0.0
- '...'
---
header:
  stamp:
    sec: 14556
    nanosec: 736000000
  frame_id: base_scan
angle_min: -3.1415998935699463
angle_max: 3.1415998935699463
angle_increment: 0.008738803677260876
time_increment: 0.0
scan_time: 0.0
range_min: 0.11999999731779099
range_max: 3.5
ranges:
- 0.5359099507331848
- 0.5537704825401306
- 0.5566785335540771
- 0.5555760264396667
- 0.39839982986450195
- 0.3994435966014862
- 0.3837124705314636
- 0.3862520456314087
- 0.37704935669898987
- 0.3817666471004486
- 0.36473721265792847
- 0.3751312494277954
- 0.3762778639793396
- 0.34821006655693054
- 0.36154916882514954
- 0.35053879022598267
- 0.36167120933532715
- 0.36175066232681274
- 0.3527015447616577
- 0.3601681590080261
- 0.3642265796661377
- 0.3384679853916168
- 0.3390464782714844
- 0.3340258002281189
- 0.3314509093761444
- 0.3226867616176605
- 0.346113920211792
- 0.3736732602119446
- 0.396344929933548
- 0.41433480381965637
- 0.42801520228385925
- 0.48237088322639465
- 0.47483158111572266
- 0.5193551778793335
- 0.5670085549354553
- 1.319938063621521
- 1.3231916427612305
- 1.3011025190353394
- 1.3183542490005493
- 1.3263145685195923
- 1.322142481803894
- 1.3264665603637695
- 1.2991997003555298
- 1.3126949071884155
- 1.3151754140853882
- 1.314278244972229
- 1.330946922302246
- 1.3099623918533325
- 1.3044975996017456
- 1.3238255977630615
- 1.311933159828186
- 1.3177292346954346
- 1.2993278503417969
- 1.3365516662597656
- 1.3096510171890259
- 1.3140451908111572
- 1.323738694190979
- 1.3160271644592285
- 1.3222134113311768
- 1.314667820930481
- 1.3293638229370117
- 1.3186231851577759
- 1.3418468236923218
- 1.3287938833236694
- 1.3217103481292725
- 1.3226096630096436
- 1.3223105669021606
- 1.3471407890319824
- 1.3331053256988525
- 1.351498007774353
- 1.3354588747024536
- 1.3347574472427368
- 1.364441990852356
- 1.3558086156845093
- 1.342726707458496
- 1.3337993621826172
- 1.3521649837493896
- 1.3480868339538574
- 1.3680477142333984
- 1.3581452369689941
- 1.3687183856964111
- 1.3804510831832886
- 1.3600003719329834
- 1.374813437461853
- 1.380725383758545
- 1.3894625902175903
- 1.403254747390747
- 1.3774642944335938
- 1.4119336605072021
- 1.4000391960144043
- 1.4011948108673096
- 1.4106054306030273
- 1.432563066482544
- 1.4141494035720825
- 1.4568110704421997
- 1.4468861818313599
- 1.4207110404968262
- 1.4655836820602417
- 1.4567546844482422
- 1.4647531509399414
- 1.4672720432281494
- 1.4831944704055786
- 1.4767353534698486
- 1.4695521593093872
- 1.5107241868972778
- 1.5010432004928589
- 1.5142580270767212
- 1.5423413515090942
- 1.5137569904327393
- 1.5347057580947876
- 0.6788490414619446
- 0.668022632598877
- 0.6710578203201294
- 0.689838171005249
- 0.6627237200737
- 0.6936618089675903
- 0.6810317039489746
- 0.6706421971321106
- 0.6998382806777954
- 0.6739320755004883
- 0.6788504123687744
- 0.6667872071266174
- 0.6790266633033752
- 0.6753389835357666
- 0.6917522549629211
- 0.6811755299568176
- 0.6829684376716614
- 1.6971815824508667
- '...'
intensities:
- 0.0
- 0.0
- 0.0
- 0.0
- 0.0
- 0.0
- 0.0
- 0.0
- 0.0
- 0.0
- 0.0
- 0.0
- 0.0
- 0.0
- 0.0
- 0.0
- 0.0
- 0.0
- 0.0
- 0.0
- 0.0
- 0.0
- 0.0
- 0.0
- 0.0
- 0.0
- 0.0
- 0.0
- 0.0
- 0.0
- 0.0
- 0.0
- 0.0
- 0.0
- 0.0
- 0.0
- 0.0
- 0.0
- 0.0
- 0.0
- 0.0
- 0.0
- 0.0
- 0.0
- 0.0
- 0.0
- 0.0
- 0.0
- 0.0
- 0.0
- 0.0
- 0.0
- 0.0
- 0.0
- 0.0
- 0.0
- 0.0
- 0.0
- 0.0
- 0.0
- 0.0
- 0.0
- 0.0
- 0.0
- 0.0
- 0.0
- 0.0
- 0.0
- 0.0
- 0.0
- 0.0
- 0.0
- 0.0
- 0.0
- 0.0
- 0.0
- 0.0
- 0.0
- 0.0
- 0.0
- 0.0
- 0.0
- 0.0
- 0.0
- 0.0
- 0.0
- 0.0
- 0.0
- 0.0
- 0.0
- 0.0
- 0.0
- 0.0
- 0.0
- 0.0
- 0.0
- 0.0
- 0.0
- 0.0
- 0.0
- 0.0
- 0.0
- 0.0
- 0.0
- 0.0
- 0.0
- 0.0
- 0.0
- 0.0
- 0.0
- 0.0
- 0.0
- 0.0
- 0.0
- 0.0
- 0.0
- 0.0
- 0.0
- 0.0
- 0.0
- 0.0
- 0.0
- 0.0
- 0.0
- 0.0
- 0.0
- 0.0
- 0.0
- '...'
---
header:
  stamp:
    sec: 14556
    nanosec: 935000000
  frame_id: base_scan
angle_min: -3.1415998935699463
angle_max: 3.1415998935699463
angle_increment: 0.008738803677260876
time_increment: 0.0
scan_time: 0.0
range_min: 0.11999999731779099
range_max: 3.5
ranges:
- 0.5290172696113586
- 0.5494832396507263
- 0.5624269247055054
- 0.5841317176818848
- 0.3952205777168274
- 0.4046436846256256
- 0.39573296904563904
- 0.4013558328151703
- 0.37319427728652954
- 0.3902095556259155
- 0.3594205975532532
- 0.3621180057525635
- 0.37749210000038147
- 0.36184677481651306
- 0.34973061084747314
- 0.3640299439430237
- 0.35353368520736694
- 0.360267698764801
- 0.34415191411972046
- 0.35003113746643066
- 0.3552849590778351
- 0.3317122459411621
- 0.32682016491889954
- 0.34293800592422485
- 0.3146194517612457
- 0.3339710235595703
- 0.34038373827934265
- 0.37681546807289124
- 0.37823954224586487
- 0.4211885631084442
- 0.420456200838089
- 0.48142009973526
- 0.48440906405448914
- 0.5082625150680542
- 0.5599039793014526
- 1.3215700387954712
- 1.3101019859313965
- 1.3156994581222534
- 1.3246747255325317
- 1.314050555229187
- 1.3047332763671875
- 1.3309612274169922
- 1.3223685026168823
- 1.328233003616333
- 1.3069367408752441
- 1.3288652896881104
- 1.305299997329712
- 1.3131743669509888
- 1.3082841634750366
- 1.3071951866149902
- 1.3098293542861938
- 1.2975629568099976
- 1.3247830867767334
- 1.3169314861297607
- 1.3207474946975708
- 1.3213826417922974
- 1.3128764629364014
- 1.324662685394287
- 1.3231009244918823
- 1.3182175159454346
- 1.3311476707458496
- 1.3224263191223145
- 1.3357515335083008
- 1.3271050453186035
- 1.3305339813232422
- 1.3324095010757446
- 1.3257391452789307
- 1.3282639980316162
- 1.3288289308547974
- 1.345847249031067
- 1.3484477996826172
- 1.3516407012939453
- 1.33413827419281
- 1.3270198106765747
- 1.348941445350647
- 1.3455628156661987
- 1.3651947975158691
- 1.349164366722107
- 1.3569040298461914
- 1.3858836889266968
- 1.375770926475525
- 1.3757997751235962
- 1.3721263408660889
- 1.384922981262207
- 1.3893405199050903
- 1.396353840827942
- 1.4065518379211426
- 1.4035431146621704
- 1.3895857334136963
- 1.4124367237091064
- 1.4097397327423096
- 1.4199992418289185
- 1.4146618843078613
- 1.4357882738113403
- 1.434956669807434
- 1.4370815753936768
- 1.4571459293365479
- 1.4648107290267944
- 1.4570322036743164
- 1.459545373916626
- 1.464987874031067
- 1.4864258766174316
- 1.4692858457565308
- 1.5058574676513672
- 1.491361379623413
- 1.5103745460510254
- 1.5170501470565796
- 1.5032060146331787
- 1.5301575660705566
- 1.5366050004959106
- 0.6769993305206299
- 0.6712246537208557
- 0.6678094863891602
- 0.67132967710495
- 0.676844596862793
- 0.6482486724853516
- 0.67784184217453
- 0.6602180600166321
- 0.6692244410514832
- 0.6807687282562256
- 0.6721856594085693
- 0.6857107281684875
- 0.6766117811203003
- 0.6796133518218994
- 0.6935359239578247
- 0.6881514191627502
- 0.6884106397628784
- 1.6792728900909424
- '...'
intensities:
- 0.0
- 0.0
- 0.0
- 0.0
- 0.0
- 0.0
- 0.0
- 0.0
- 0.0
- 0.0
- 0.0
- 0.0
- 0.0
- 0.0
- 0.0
- 0.0
- 0.0
- 0.0
- 0.0
- 0.0
- 0.0
- 0.0
- 0.0
- 0.0
- 0.0
- 0.0
- 0.0
- 0.0
- 0.0
- 0.0
- 0.0
- 0.0
- 0.0
- 0.0
- 0.0
- 0.0
- 0.0
- 0.0
- 0.0
- 0.0
- 0.0
- 0.0
- 0.0
- 0.0
- 0.0
- 0.0
- 0.0
- 0.0
- 0.0
- 0.0
- 0.0
- 0.0
- 0.0
- 0.0
- 0.0
- 0.0
- 0.0
- 0.0
- 0.0
- 0.0
- 0.0
- 0.0
- 0.0
- 0.0
- 0.0
- 0.0
- 0.0
- 0.0
- 0.0
- 0.0
- 0.0
- 0.0
- 0.0
- 0.0
- 0.0
- 0.0
- 0.0
- 0.0
- 0.0
- 0.0
- 0.0
- 0.0
- 0.0
- 0.0
- 0.0
- 0.0
- 0.0
- 0.0
- 0.0
- 0.0
- 0.0
- 0.0
- 0.0
- 0.0
- 0.0
- 0.0
- 0.0
- 0.0
- 0.0
- 0.0
- 0.0
- 0.0
- 0.0
- 0.0
- 0.0
- 0.0
- 0.0
- 0.0
- 0.0
- 0.0
- 0.0
- 0.0
- 0.0
- 0.0
- 0.0
- 0.0
- 0.0
- 0.0
- 0.0
- 0.0
- 0.0
- 0.0
- 0.0
- 0.0
- 0.0
- 0.0
- 0.0
- 0.0
- '...'
---
header:
  stamp:
    sec: 14557
    nanosec: 134000000
  frame_id: base_scan
angle_min: -3.1415998935699463
angle_max: 3.1415998935699463
angle_increment: 0.008738803677260876
time_increment: 0.0
scan_time: 0.0
range_min: 0.11999999731779099
range_max: 3.5
ranges:
- 0.5414275527000427
- 0.5380625128746033
- 0.5629825592041016
- 0.5722583532333374
- 0.4226480722427368
- 0.40550515055656433
- 0.3867405652999878
- 0.4086156487464905
- 0.387481153011322
- 0.3890337646007538
- 0.3685573637485504
- 0.3808203339576721
- 0.3677988648414612
- 0.39013439416885376
- 0.37615782022476196
- 0.36198335886001587
- 0.3504513204097748
- 0.3558041453361511
- 0.36220166087150574
- 0.3559929430484772
- 0.3484075963497162
- 0.3455493748188019
- 0.3377491533756256
- 0.35228538513183594
- 0.34723562002182007
- 0.33850884437561035
- 0.3416691720485687
- 0.36687904596328735
- 0.3651510179042816
- 0.4174390733242035
- 0.4289814233779907
- 0.46152710914611816
- 0.4938593804836273
- 0.5238121747970581
- 0.570469081401825
- 1.318856954574585
- 1.336738109588623
- 1.3142421245574951
- 1.326994776725769
- 1.3222225904464722
- 1.3219006061553955
- 1.3046395778656006
- 1.309427261352539
- 1.3254462480545044
- 1.3170493841171265
- 1.3111172914505005
- 1.320235252380371
- 1.3010953664779663
- 1.3161324262619019
- 1.3024464845657349
- 1.3166451454162598
- 1.3349522352218628
- 1.3217504024505615
- 1.3188023567199707
- 1.3003040552139282
- 1.3293213844299316
- 1.3157615661621094
- 1.3096985816955566
- 1.3119605779647827
- 1.3032608032226562
- 1.3294395208358765
- 1.3264394998550415
- 1.3284852504730225
- 1.3339179754257202
- 1.3286949396133423
- 1.3261864185333252
- 1.3249578475952148
- 1.326613187789917
- 1.3358961343765259
- 1.3436082601547241
- 1.3264362812042236
- 1.336713194847107
- 1.354703426361084
- 1.3563499450683594
- 1.3516567945480347
- 1.3661890029907227
- 1.3691905736923218
- 1.3663746118545532
- 1.3592119216918945
- 1.3808784484863281
- 1.3522069454193115
- 1.3674367666244507
- 1.378516674041748
- 1.4015756845474243
- 1.3825929164886475
- 1.3912814855575562
- 1.3965561389923096
- 1.3953064680099487
- 1.4011279344558716
- 1.4113743305206299
- 1.408305287361145
- 1.4184130430221558
- 1.4300302267074585
- 1.4346636533737183
- 1.4363288879394531
- 1.4473092555999756
- 1.4553008079528809
- 1.4538896083831787
- 1.4623017311096191
- 1.4591675996780396
- 1.4661084413528442
- 1.4707434177398682
- 1.4845458269119263
- 1.50114905834198
- 1.4943958520889282
- 1.4868603944778442
- 1.5197683572769165
- 1.4913257360458374
- 1.5319467782974243
- 1.5354605913162231
- 0.6881713271141052
- 0.6744598746299744
- 0.6790294647216797
- 0.6648997068405151
- 0.6948301196098328
- 0.6721420884132385
- 0.6807641983032227
- 0.6646222472190857
- 0.6876652836799622
- 0.6678421497344971
- 0.6743877530097961
- 0.6689054369926453
- 0.679633378982544
- 0.6667630076408386
- 0.6860748529434204
- 0.6641448140144348
- 0.6857203841209412
- 1.6953163146972656
- '...'
intensities:
- 0.0
- 0.0
- 0.0
- 0.0
- 0.0
- 0.0
- 0.0
- 0.0
- 0.0
- 0.0
- 0.0
- 0.0
- 0.0
- 0.0
- 0.0
- 0.0
- 0.0
- 0.0
- 0.0
- 0.0
- 0.0
- 0.0
- 0.0
- 0.0
- 0.0
- 0.0
- 0.0
- 0.0
- 0.0
- 0.0
- 0.0
- 0.0
- 0.0
- 0.0
- 0.0
- 0.0
- 0.0
- 0.0
- 0.0
- 0.0
- 0.0
- 0.0
- 0.0
- 0.0
- 0.0
- 0.0
- 0.0
- 0.0
- 0.0
- 0.0
- 0.0
- 0.0
- 0.0
- 0.0
- 0.0
- 0.0
- 0.0
- 0.0
- 0.0
- 0.0
- 0.0
- 0.0
- 0.0
- 0.0
- 0.0
- 0.0
- 0.0
- 0.0
- 0.0
- 0.0
- 0.0
- 0.0
- 0.0
- 0.0
- 0.0
- 0.0
- 0.0
- 0.0
- 0.0
- 0.0
- 0.0
- 0.0
- 0.0
- 0.0
- 0.0
- 0.0
- 0.0
- 0.0
- 0.0
- 0.0
- 0.0
- 0.0
- 0.0
- 0.0
- 0.0
- 0.0
- 0.0
- 0.0
- 0.0
- 0.0
- 0.0
- 0.0
- 0.0
- 0.0
- 0.0
- 0.0
- 0.0
- 0.0
- 0.0
- 0.0
- 0.0
- 0.0
- 0.0
- 0.0
- 0.0
- 0.0
- 0.0
- 0.0
- 0.0
- 0.0
- 0.0
- 0.0
- 0.0
- 0.0
- 0.0
- 0.0
- 0.0
- 0.0
- '...'
---
header:
  stamp:
    sec: 14557
    nanosec: 337000000
  frame_id: base_scan
angle_min: -3.1415998935699463
angle_max: 3.1415998935699463
angle_increment: 0.008738803677260876
time_increment: 0.0
scan_time: 0.0
range_min: 0.11999999731779099
range_max: 3.5
ranges:
- 0.5267179012298584
- 0.546522319316864
- 0.5519247651100159
- 0.5749509930610657
- 0.43573492765426636
- 0.38546669483184814
- 0.3990759253501892
- 0.4009327292442322
- 0.3856622278690338
- 0.38741186261177063
- 0.3789670765399933
- 0.38345420360565186
- 0.3774796426296234
- 0.3696230351924896
- 0.3738963007926941
- 0.3603283166885376
- 0.353055864572525
- 0.3599672019481659
- 0.3464437425136566
- 0.35356757044792175
- 0.3435744643211365
- 0.3487951159477234
- 0.3528810441493988
- 0.338550329208374
- 0.32527634501457214
- 0.32447555661201477
- 0.353946328163147
- 0.3698645234107971
- 0.3847154676914215
- 0.40386465191841125
- 0.4313778281211853
- 0.4755721092224121
- 0.4830852448940277
- 0.5260414481163025
- 0.5453820824623108
- 1.3021749258041382
- 1.3207647800445557
- 1.304594874382019
- 1.31581449508667
- 1.3105406761169434
- 1.330682635307312
- 1.3207184076309204
- 1.3251978158950806
- 1.3149690628051758
- 1.3195812702178955
- 1.32160222530365
- 1.3099263906478882
- 1.3281224966049194
- 1.322881817817688
- 1.317061185836792
- 1.3234773874282837
- 1.3130775690078735
- 1.3230808973312378
- 1.3058887720108032
- 1.3112432956695557
- 1.3331838846206665
- 1.3455076217651367
- 1.3030438423156738
- 1.3086059093475342
- 1.3162308931350708
- 1.316382646560669
- 1.305633544921875
- 1.3242459297180176
- 1.344718337059021
- 1.3214137554168701
- 1.331058382987976
- 1.3265880346298218
- 1.3417623043060303
- 1.3278995752334595
- 1.32635498046875
- 1.3507119417190552
- 1.3227919340133667
- 1.3556342124938965
- 1.3463691473007202
- 1.385399580001831
- 1.3561162948608398
- 1.3591651916503906
- 1.367888331413269
- 1.3707225322723389
- 1.3622113466262817
- 1.3564730882644653
- 1.362899899482727
- 1.382896065711975
- 1.385204792022705
- 1.381658911705017
- 1.3927758932113647
- 1.3881182670593262
- 1.419612169265747
- 1.4014887809753418
- 1.4019414186477661
- 1.424360752105713
- 1.4107214212417603
- 1.3988667726516724
- 1.4309450387954712
- 1.4438669681549072
- 1.452844500541687
- 1.446299433708191
- 1.4523698091506958
- 1.4571398496627808
- 1.4453729391098022
- 1.4687931537628174
- 1.4592061042785645
- 1.4907041788101196
- 1.4997344017028809
- 1.499174952507019
- 1.5079296827316284
- 1.531671166419983
- 1.5032641887664795
- 1.53102445602417
- 1.5270811319351196
- 0.6641720533370972
- 0.6940900087356567
- 0.6761045455932617
- 0.6703887581825256
- 0.6781527996063232
- 0.6705294847488403
- 0.6778337955474854
- 0.6721274852752686
- 0.6824021935462952
- 0.6646848917007446
- 0.683944046497345
- 0.6854550242424011
- 0.6717044115066528
- 0.6694602370262146
- 0.6916084289550781
- 0.6809704899787903
- 0.6817464232444763
- 1.6922670602798462
- '...'
intensities:
- 0.0
- 0.0
- 0.0
- 0.0
- 0.0
- 0.0
- 0.0
- 0.0
- 0.0
- 0.0
- 0.0
- 0.0
- 0.0
- 0.0
- 0.0
- 0.0
- 0.0
- 0.0
- 0.0
- 0.0
- 0.0
- 0.0
- 0.0
- 0.0
- 0.0
- 0.0
- 0.0
- 0.0
- 0.0
- 0.0
- 0.0
- 0.0
- 0.0
- 0.0
- 0.0
- 0.0
- 0.0
- 0.0
- 0.0
- 0.0
- 0.0
- 0.0
- 0.0
- 0.0
- 0.0
- 0.0
- 0.0
- 0.0
- 0.0
- 0.0
- 0.0
- 0.0
- 0.0
- 0.0
- 0.0
- 0.0
- 0.0
- 0.0
- 0.0
- 0.0
- 0.0
- 0.0
- 0.0
- 0.0
- 0.0
- 0.0
- 0.0
- 0.0
- 0.0
- 0.0
- 0.0
- 0.0
- 0.0
- 0.0
- 0.0
- 0.0
- 0.0
- 0.0
- 0.0
- 0.0
- 0.0
- 0.0
- 0.0
- 0.0
- 0.0
- 0.0
- 0.0
- 0.0
- 0.0
- 0.0
- 0.0
- 0.0
- 0.0
- 0.0
- 0.0
- 0.0
- 0.0
- 0.0
- 0.0
- 0.0
- 0.0
- 0.0
- 0.0
- 0.0
- 0.0
- 0.0
- 0.0
- 0.0
- 0.0
- 0.0
- 0.0
- 0.0
- 0.0
- 0.0
- 0.0
- 0.0
- 0.0
- 0.0
- 0.0
- 0.0
- 0.0
- 0.0
- 0.0
- 0.0
- 0.0
- 0.0
- 0.0
- 0.0
- '...'
---
header:
  stamp:
    sec: 14557
    nanosec: 538000000
  frame_id: base_scan
angle_min: -3.1415998935699463
angle_max: 3.1415998935699463
angle_increment: 0.008738803677260876
time_increment: 0.0
scan_time: 0.0
range_min: 0.11999999731779099
range_max: 3.5
ranges:
- 0.5224881172180176
- 0.5604734420776367
- 0.5488348603248596
- 0.5747039914131165
- 0.39961564540863037
- 0.4076082408428192
- 0.39453965425491333
- 0.38951462507247925
- 0.392024427652359
- 0.38554567098617554
- 0.3869003653526306
- 0.3774048984050751
- 0.3652002215385437
- 0.3602752089500427
- 0.3444376587867737
- 0.3614204525947571
- 0.36654478311538696
- 0.3481552004814148
- 0.3393707871437073
- 0.35875749588012695
- 0.33978262543678284
- 0.3372778594493866
- 0.34782716631889343
- 0.33060362935066223
- 0.33156818151474
- 0.31917327642440796
- 0.3499027490615845
- 0.38189417123794556
- 0.3712880313396454
- 0.410368949174881
- 0.4354017376899719
- 0.49402397871017456
- 0.4997410476207733
- 0.5151917934417725
- 0.5536146759986877
- 1.325361728668213
- 1.307202935218811
- 1.327335238456726
- 1.329179048538208
- 1.3134831190109253
- 1.3149158954620361
- 1.3279619216918945
- 1.3237673044204712
- 1.3180677890777588
- 1.3198741674423218
- 1.3124805688858032
- 1.309364676475525
- 1.306344985961914
- 1.3026684522628784
- 1.3142802715301514
- 1.2987560033798218
- 1.3159767389297485
- 1.3217153549194336
- 1.339035987854004
- 1.3040387630462646
- 1.3029662370681763
- 1.3129651546478271
- 1.3165652751922607
- 1.3289053440093994
- 1.338688850402832
- 1.3206908702850342
- 1.3322557210922241
- 1.3174775838851929
- 1.310126543045044
- 1.341153860092163
- 1.341096043586731
- 1.3396867513656616
- 1.33161199092865
- 1.3373814821243286
- 1.3254114389419556
- 1.3324463367462158
- 1.3584047555923462
- 1.3451347351074219
- 1.3444796800613403
- 1.3489445447921753
- 1.3537718057632446
- 1.3476673364639282
- 1.359429955482483
- 1.3506321907043457
- 1.368206262588501
- 1.371978521347046
- 1.3780804872512817
- 1.3861345052719116
- 1.381661295890808
- 1.382148265838623
- 1.3974149227142334
- 1.3913301229476929
- 1.4020723104476929
- 1.3873260021209717
- 1.4158495664596558
- 1.4154452085494995
- 1.4128121137619019
- 1.4057458639144897
- 1.4266154766082764
- 1.4232704639434814
- 1.4398151636123657
- 1.4505646228790283
- 1.4442646503448486
- 1.4529750347137451
- 1.4620192050933838
- 1.4806292057037354
- 1.4651955366134644
- 1.4966051578521729
- 1.503075361251831
- 1.4957878589630127
- 1.4967583417892456
- 1.5153155326843262
- 1.5234673023223877
- 1.5390595197677612
- 1.5371770858764648
- 0.6747520565986633
- 0.6842770576477051
- 0.6610812544822693
- 0.6842721700668335
- 0.6659756302833557
- 0.6672369837760925
- 0.6624655723571777
- 0.6985906958580017
- 0.681888222694397
- 0.6611536741256714
- 0.67637038230896
- 0.673495352268219
- 0.67185378074646
- 0.6788365840911865
- 0.6923125982284546
- 0.6797617077827454
- 0.6663178205490112
- 1.67209792137146
- '...'
intensities:
- 0.0
- 0.0
- 0.0
- 0.0
- 0.0
- 0.0
- 0.0
- 0.0
- 0.0
- 0.0
- 0.0
- 0.0
- 0.0
- 0.0
- 0.0
- 0.0
- 0.0
- 0.0
- 0.0
- 0.0
- 0.0
- 0.0
- 0.0
- 0.0
- 0.0
- 0.0
- 0.0
- 0.0
- 0.0
- 0.0
- 0.0
- 0.0
- 0.0
- 0.0
- 0.0
- 0.0
- 0.0
- 0.0
- 0.0
- 0.0
- 0.0
- 0.0
- 0.0
- 0.0
- 0.0
- 0.0
- 0.0
- 0.0
- 0.0
- 0.0
- 0.0
- 0.0
- 0.0
- 0.0
- 0.0
- 0.0
- 0.0
- 0.0
- 0.0
- 0.0
- 0.0
- 0.0
- 0.0
- 0.0
- 0.0
- 0.0
- 0.0
- 0.0
- 0.0
- 0.0
- 0.0
- 0.0
- 0.0
- 0.0
- 0.0
- 0.0
- 0.0
- 0.0
- 0.0
- 0.0
- 0.0
- 0.0
- 0.0
- 0.0
- 0.0
- 0.0
- 0.0
- 0.0
- 0.0
- 0.0
- 0.0
- 0.0
- 0.0
- 0.0
- 0.0
- 0.0
- 0.0
- 0.0
- 0.0
- 0.0
- 0.0
- 0.0
- 0.0
- 0.0
- 0.0
- 0.0
- 0.0
- 0.0
- 0.0
- 0.0
- 0.0
- 0.0
- 0.0
- 0.0
- 0.0
- 0.0
- 0.0
- 0.0
- 0.0
- 0.0
- 0.0
- 0.0
- 0.0
- 0.0
- 0.0
- 0.0
- 0.0
- 0.0
- '...'
---
header:
  stamp:
    sec: 14557
    nanosec: 736000000
  frame_id: base_scan
angle_min: -3.1415998935699463
angle_max: 3.1415998935699463
angle_increment: 0.008738803677260876
time_increment: 0.0
scan_time: 0.0
range_min: 0.11999999731779099
range_max: 3.5
ranges:
- 0.5301311612129211
- 0.5554780960083008
- 0.5617085695266724
- 0.5627931952476501
- 0.4135933220386505
- 0.3957222104072571
- 0.3823407292366028
- 0.39648810029029846
- 0.3861820697784424
- 0.3925555348396301
- 0.38760843873023987
- 0.3823438584804535
- 0.37481218576431274
- 0.35979512333869934
- 0.3703804314136505
- 0.3700270652770996
- 0.3564452826976776
- 0.34391334652900696
- 0.3537827432155609
- 0.36133402585983276
- 0.3373461067676544
- 0.3697231113910675
- 0.345357745885849
- 0.3369031548500061
- 0.3359270393848419
- 0.32891151309013367
- 0.3520587086677551
- 0.36629176139831543
- 0.40100428462028503
- 0.4157794415950775
- 0.43438684940338135
- 0.4812622666358948
- 0.4882354438304901
- 0.5425840020179749
- 0.5490865707397461
- 1.3244078159332275
- 1.3314400911331177
- 1.3044319152832031
- 1.3147064447402954
- 1.3166636228561401
- 1.328079104423523
- 1.2953290939331055
- 1.3083077669143677
- 1.3133368492126465
- 1.3036853075027466
- 1.3096493482589722
- 1.322298288345337
- 1.3324170112609863
- 1.3051414489746094
- 1.315024733543396
- 1.3138903379440308
- 1.3187201023101807
- 1.3104479312896729
- 1.3076227903366089
- 1.331386685371399
- 1.3193539381027222
- 1.327460765838623
- 1.33049738407135
- 1.318876028060913
- 1.337195873260498
- 1.3027788400650024
- 1.3248469829559326
- 1.313358187675476
- 1.3335282802581787
- 1.3477404117584229
- 1.3273800611495972
- 1.3477051258087158
- 1.3413985967636108
- 1.3251543045043945
- 1.3416684865951538
- 1.3396313190460205
- 1.3400626182556152
- 1.3360285758972168
- 1.3384754657745361
- 1.3487262725830078
- 1.3482589721679688
- 1.3664876222610474
- 1.3557294607162476
- 1.3613827228546143
- 1.37869393825531
- 1.358432650566101
- 1.3645570278167725
- 1.3771430253982544
- 1.3940565586090088
- 1.3785953521728516
- 1.3890619277954102
- 1.3856961727142334
- 1.3876255750656128
- 1.4154784679412842
- 1.3947240114212036
- 1.4151893854141235
- 1.4384034872055054
- 1.4313240051269531
- 1.412824273109436
- 1.4224549531936646
- 1.4321013689041138
- 1.44890558719635
- 1.4482179880142212
- 1.473008632659912
- 1.4728798866271973
- 1.4640707969665527
- 1.481111764907837
- 1.4694188833236694
- 1.4922447204589844
- 1.4726873636245728
- 1.4742766618728638
- 1.5172816514968872
- 1.5352834463119507
- 1.5211341381072998
- 1.5297187566757202
- 0.671952486038208
- 0.6897496581077576
- 0.6808760166168213
- 0.6712420582771301
- 0.6887082457542419
- 0.6952674984931946
- 0.6682368516921997
- 0.6743955612182617
- 0.6680229902267456
- 0.6699036955833435
- 0.6697436571121216
- 0.6838428974151611
- 0.6881644129753113
- 0.6762765049934387
- 0.6755126714706421
- 0.6910940408706665
- 0.6692131161689758
- 1.695045828819275
- '...'
intensities:
- 0.0
- 0.0
- 0.0
- 0.0
- 0.0
- 0.0
- 0.0
- 0.0
- 0.0
- 0.0
- 0.0
- 0.0
- 0.0
- 0.0
- 0.0
- 0.0
- 0.0
- 0.0
- 0.0
- 0.0
- 0.0
- 0.0
- 0.0
- 0.0
- 0.0
- 0.0
- 0.0
- 0.0
- 0.0
- 0.0
- 0.0
- 0.0
- 0.0
- 0.0
- 0.0
- 0.0
- 0.0
- 0.0
- 0.0
- 0.0
- 0.0
- 0.0
- 0.0
- 0.0
- 0.0
- 0.0
- 0.0
- 0.0
- 0.0
- 0.0
- 0.0
- 0.0
- 0.0
- 0.0
- 0.0
- 0.0
- 0.0
- 0.0
- 0.0
- 0.0
- 0.0
- 0.0
- 0.0
- 0.0
- 0.0
- 0.0
- 0.0
- 0.0
- 0.0
- 0.0
- 0.0
- 0.0
- 0.0
- 0.0
- 0.0
- 0.0
- 0.0
- 0.0
- 0.0
- 0.0
- 0.0
- 0.0
- 0.0
- 0.0
- 0.0
- 0.0
- 0.0
- 0.0
- 0.0
- 0.0
- 0.0
- 0.0
- 0.0
- 0.0
- 0.0
- 0.0
- 0.0
- 0.0
- 0.0
- 0.0
- 0.0
- 0.0
- 0.0
- 0.0
- 0.0
- 0.0
- 0.0
- 0.0
- 0.0
- 0.0
- 0.0
- 0.0
- 0.0
- 0.0
- 0.0
- 0.0
- 0.0
- 0.0
- 0.0
- 0.0
- 0.0
- 0.0
- 0.0
- 0.0
- 0.0
- 0.0
- 0.0
- 0.0
- '...'
---
header:
  stamp:
    sec: 14557
    nanosec: 938000000
  frame_id: base_scan
angle_min: -3.1415998935699463
angle_max: 3.1415998935699463
angle_increment: 0.008738803677260876
time_increment: 0.0
scan_time: 0.0
range_min: 0.11999999731779099
range_max: 3.5
ranges:
- 0.5318624973297119
- 0.5614652037620544
- 0.5540355443954468
- 0.5787372589111328
- 0.41132283210754395
- 0.4079667329788208
- 0.3965771794319153
- 0.40169188380241394
- 0.3940899074077606
- 0.3794657588005066
- 0.3712844252586365
- 0.36215728521347046
- 0.3604671061038971
- 0.37517696619033813
- 0.3721303641796112
- 0.34764590859413147
- 0.37862977385520935
- 0.3713294267654419
- 0.3480282723903656
- 0.34024226665496826
- 0.35464394092559814
- 0.33548757433891296
- 0.3329050838947296
- 0.3383990526199341
- 0.33854973316192627
- 0.313602089881897
- 0.3338161110877991
- 0.3610609471797943
- 0.37689852714538574
- 0.42260465025901794
- 0.42941880226135254
- 0.45809122920036316
- 0.4963175058364868
- 0.523794412612915
- 0.5545420050621033
- 1.3278242349624634
- 1.3286150693893433
- 1.3252122402191162
- 1.2975506782531738
- 1.310543417930603
- 1.318568229675293
- 1.2981064319610596
- 1.3214881420135498
- 1.3034666776657104
- 1.3072916269302368
- 1.3174062967300415
- 1.3142096996307373
- 1.2977873086929321
- 1.3208985328674316
- 1.3140941858291626
- 1.3179664611816406
- 1.3158411979675293
- 1.321122407913208
- 1.3063126802444458
- 1.319633960723877
- 1.317137598991394
- 1.295870304107666
- 1.3144028186798096
- 1.317488431930542
- 1.3203303813934326
- 1.316683292388916
- 1.322729229927063
- 1.3184382915496826
- 1.3264497518539429
- 1.3424146175384521
- 1.3454475402832031
- 1.3222724199295044
- 1.3327375650405884
- 1.3524571657180786
- 1.3537083864212036
- 1.3562941551208496
- 1.3477720022201538
- 1.3565771579742432
- 1.3390098810195923
- 1.3403241634368896
- 1.3395981788635254
- 1.3521387577056885
- 1.3531250953674316
- 1.3766777515411377
- 1.364442229270935
- 1.3682297468185425
- 1.370477557182312
- 1.3825268745422363
- 1.3807446956634521
- 1.3858345746994019
- 1.396435260772705
- 1.402816653251648
- 1.3856887817382812
- 1.4063286781311035
- 1.416813850402832
- 1.4085693359375
- 1.4043091535568237
- 1.423666000366211
- 1.4318922758102417
- 1.4405430555343628
- 1.4338693618774414
- 1.4559776782989502
- 1.4537394046783447
- 1.4775564670562744
- 1.4563113451004028
- 1.4803730249404907
- 1.484338402748108
- 1.5054512023925781
- 1.4927287101745605
- 1.486802101135254
- 1.50093412399292
- 1.5140388011932373
- 1.5181307792663574
- 1.5352764129638672
- 1.5412479639053345
- 0.6772856116294861
- 0.6875318884849548
- 0.675623893737793
- 0.6690657734870911
- 0.7064199447631836
- 0.6914701461791992
- 0.6921330690383911
- 0.6813030242919922
- 0.68598872423172
- 0.6845636367797852
- 0.6655094623565674
- 0.6698204874992371
- 0.6758267879486084
- 0.6819168329238892
- 0.6890712380409241
- 0.6800200939178467
- 0.6844687461853027
- 1.6840591430664062
- '...'
intensities:
- 0.0
- 0.0
- 0.0
- 0.0
- 0.0
- 0.0
- 0.0
- 0.0
- 0.0
- 0.0
- 0.0
- 0.0
- 0.0
- 0.0
- 0.0
- 0.0
- 0.0
- 0.0
- 0.0
- 0.0
- 0.0
- 0.0
- 0.0
- 0.0
- 0.0
- 0.0
- 0.0
- 0.0
- 0.0
- 0.0
- 0.0
- 0.0
- 0.0
- 0.0
- 0.0
- 0.0
- 0.0
- 0.0
- 0.0
- 0.0
- 0.0
- 0.0
- 0.0
- 0.0
- 0.0
- 0.0
- 0.0
- 0.0
- 0.0
- 0.0
- 0.0
- 0.0
- 0.0
- 0.0
- 0.0
- 0.0
- 0.0
- 0.0
- 0.0
- 0.0
- 0.0
- 0.0
- 0.0
- 0.0
- 0.0
- 0.0
- 0.0
- 0.0
- 0.0
- 0.0
- 0.0
- 0.0
- 0.0
- 0.0
- 0.0
- 0.0
- 0.0
- 0.0
- 0.0
- 0.0
- 0.0
- 0.0
- 0.0
- 0.0
- 0.0
- 0.0
- 0.0
- 0.0
- 0.0
- 0.0
- 0.0
- 0.0
- 0.0
- 0.0
- 0.0
- 0.0
- 0.0
- 0.0
- 0.0
- 0.0
- 0.0
- 0.0
- 0.0
- 0.0
- 0.0
- 0.0
- 0.0
- 0.0
- 0.0
- 0.0
- 0.0
- 0.0
- 0.0
- 0.0
- 0.0
- 0.0
- 0.0
- 0.0
- 0.0
- 0.0
- 0.0
- 0.0
- 0.0
- 0.0
- 0.0
- 0.0
- 0.0
- 0.0
- '...'
---
header:
  stamp:
    sec: 14558
    nanosec: 138000000
  frame_id: base_scan
angle_min: -3.1415998935699463
angle_max: 3.1415998935699463
angle_increment: 0.008738803677260876
time_increment: 0.0
scan_time: 0.0
range_min: 0.11999999731779099
range_max: 3.5
ranges:
- 0.5318998098373413
- 0.5542913675308228
- 0.5471947193145752
- 0.5917524695396423
- 0.40364527702331543
- 0.3954605460166931
- 0.42259687185287476
- 0.39578160643577576
- 0.40226367115974426
- 0.38788869976997375
- 0.37623926997184753
- 0.3696214556694031
- 0.36246946454048157
- 0.36332961916923523
- 0.36513540148735046
- 0.3685096800327301
- 0.36428868770599365
- 0.33615991473197937
- 0.36350780725479126
- 0.3308870494365692
- 0.353743314743042
- 0.3569782078266144
- 0.3416055142879486
- 0.34840822219848633
- 0.33452945947647095
- 0.32054653763771057
- 0.34631824493408203
- 0.37033385038375854
- 0.38378313183784485
- 0.39556992053985596
- 0.43825483322143555
- 0.4885769188404083
- 0.49617332220077515
- 0.5304822325706482
- 0.570175290107727
- 1.3265185356140137
- 1.3119285106658936
- 1.3032195568084717
- 1.3084756135940552
- 1.3164513111114502
- 1.3171274662017822
- 1.3021680116653442
- 1.3124572038650513
- 1.3141529560089111
- 1.3005640506744385
- 1.3070968389511108
- 1.310958743095398
- 1.2988388538360596
- 1.3229293823242188
- 1.3225171566009521
- 1.3215734958648682
- 1.2906821966171265
- 1.3181127309799194
- 1.3118609189987183
- 1.3236775398254395
- 1.3223166465759277
- 1.3129756450653076
- 1.3163018226623535
- 1.3250094652175903
- 1.3116912841796875
- 1.323288917541504
- 1.3360992670059204
- 1.3238575458526611
- 1.3414785861968994
- 1.3280304670333862
- 1.3429728746414185
- 1.3499376773834229
- 1.3361551761627197
- 1.3284133672714233
- 1.343736171722412
- 1.361966848373413
- 1.352147102355957
- 1.3500993251800537
- 1.3385993242263794
- 1.3480439186096191
- 1.3634848594665527
- 1.3459209203720093
- 1.3474715948104858
- 1.3733563423156738
- 1.3680264949798584
- 1.3758512735366821
- 1.3612792491912842
- 1.380463719367981
- 1.3879711627960205
- 1.3878904581069946
- 1.4018046855926514
- 1.3939458131790161
- 1.4022125005722046
- 1.3915362358093262
- 1.4054875373840332
- 1.414397954940796
- 1.4261900186538696
- 1.4171664714813232
- 1.442862868309021
- 1.458813190460205
- 1.4350605010986328
- 1.4553115367889404
- 1.439342975616455
- 1.4525092840194702
- 1.462934970855713
- 1.4774742126464844
- 1.4807653427124023
- 1.4870167970657349
- 1.496973991394043
- 1.5040220022201538
- 1.4936466217041016
- 1.5375607013702393
- 1.530784010887146
- 1.5138121843338013
- 1.552354335784912
- 0.6907441020011902
- 0.6586375832557678
- 0.653399646282196
- 0.6804862022399902
- 0.6773135662078857
- 0.6721475124359131
- 0.674083948135376
- 0.6848686933517456
- 0.6874316930770874
- 0.6714444160461426
- 0.6770861148834229
- 0.6708514094352722
- 0.6825990080833435
- 0.689536452293396
- 0.6917495131492615
- 0.6804896593093872
- 0.691287100315094
- 1.695939064025879
- '...'
intensities:
- 0.0
- 0.0
- 0.0
- 0.0
- 0.0
- 0.0
- 0.0
- 0.0
- 0.0
- 0.0
- 0.0
- 0.0
- 0.0
- 0.0
- 0.0
- 0.0
- 0.0
- 0.0
- 0.0
- 0.0
- 0.0
- 0.0
- 0.0
- 0.0
- 0.0
- 0.0
- 0.0
- 0.0
- 0.0
- 0.0
- 0.0
- 0.0
- 0.0
- 0.0
- 0.0
- 0.0
- 0.0
- 0.0
- 0.0
- 0.0
- 0.0
- 0.0
- 0.0
- 0.0
- 0.0
- 0.0
- 0.0
- 0.0
- 0.0
- 0.0
- 0.0
- 0.0
- 0.0
- 0.0
- 0.0
- 0.0
- 0.0
- 0.0
- 0.0
- 0.0
- 0.0
- 0.0
- 0.0
- 0.0
- 0.0
- 0.0
- 0.0
- 0.0
- 0.0
- 0.0
- 0.0
- 0.0
- 0.0
- 0.0
- 0.0
- 0.0
- 0.0
- 0.0
- 0.0
- 0.0
- 0.0
- 0.0
- 0.0
- 0.0
- 0.0
- 0.0
- 0.0
- 0.0
- 0.0
- 0.0
- 0.0
- 0.0
- 0.0
- 0.0
- 0.0
- 0.0
- 0.0
- 0.0
- 0.0
- 0.0
- 0.0
- 0.0
- 0.0
- 0.0
- 0.0
- 0.0
- 0.0
- 0.0
- 0.0
- 0.0
- 0.0
- 0.0
- 0.0
- 0.0
- 0.0
- 0.0
- 0.0
- 0.0
- 0.0
- 0.0
- 0.0
- 0.0
- 0.0
- 0.0
- 0.0
- 0.0
- 0.0
- 0.0
- '...'
---
header:
  stamp:
    sec: 14558
    nanosec: 335000000
  frame_id: base_scan
angle_min: -3.1415998935699463
angle_max: 3.1415998935699463
angle_increment: 0.008738803677260876
time_increment: 0.0
scan_time: 0.0
range_min: 0.11999999731779099
range_max: 3.5
ranges:
- 0.5441681146621704
- 0.5318981409072876
- 0.5706524848937988
- 0.5761873126029968
- 0.4116296172142029
- 0.40883174538612366
- 0.40346649289131165
- 0.4047721028327942
- 0.3960835039615631
- 0.37185001373291016
- 0.38910815119743347
- 0.38294848799705505
- 0.37991660833358765
- 0.37783730030059814
- 0.353150337934494
- 0.3548441529273987
- 0.3683241307735443
- 0.34565961360931396
- 0.3434204161167145
- 0.3426370918750763
- 0.35288187861442566
- 0.33735331892967224
- 0.3507663607597351
- 0.34596145153045654
- 0.3256591260433197
- 0.3303873836994171
- 0.3415523171424866
- 0.3370147943496704
- 0.3814225494861603
- 0.42715170979499817
- 0.43283024430274963
- 0.4880942404270172
- 0.4799598753452301
- 0.5280109643936157
- 0.5746574401855469
- 1.3130443096160889
- 1.3278427124023438
- 1.299385905265808
- 1.3086674213409424
- 1.3300139904022217
- 1.3209408521652222
- 1.3249197006225586
- 1.3343613147735596
- 1.3331676721572876
- 1.3149261474609375
- 1.3096096515655518
- 1.309597373008728
- 1.313730001449585
- 1.3227550983428955
- 1.3243345022201538
- 1.312567949295044
- 1.3246419429779053
- 1.3077640533447266
- 1.3136683702468872
- 1.3318581581115723
- 1.3248276710510254
- 1.304772138595581
- 1.3202804327011108
- 1.3226758241653442
- 1.3218895196914673
- 1.3165614604949951
- 1.3314461708068848
- 1.3318228721618652
- 1.3235820531845093
- 1.3389580249786377
- 1.3263449668884277
- 1.3249945640563965
- 1.3378973007202148
- 1.3334178924560547
- 1.3338454961776733
- 1.3463873863220215
- 1.3457491397857666
- 1.365272045135498
- 1.3572994470596313
- 1.3513269424438477
- 1.3630746603012085
- 1.3463624715805054
- 1.3734288215637207
- 1.3613706827163696
- 1.3687856197357178
- 1.371297001838684
- 1.3857139348983765
- 1.3837392330169678
- 1.3784602880477905
- 1.3783509731292725
- 1.4015378952026367
- 1.3889890909194946
- 1.3836803436279297
- 1.3870558738708496
- 1.417140245437622
- 1.4285240173339844
- 1.4025499820709229
- 1.4262282848358154
- 1.4190092086791992
- 1.4278899431228638
- 1.439028263092041
- 1.4686795473098755
- 1.4533478021621704
- 1.4466956853866577
- 1.4727692604064941
- 1.4628069400787354
- 1.4718918800354004
- 1.4942981004714966
- 1.4810658693313599
- 1.5073440074920654
- 1.4977809190750122
- 1.5082272291183472
- 1.5221459865570068
- 1.5246800184249878
- 1.5303986072540283
- 0.68394535779953
- 0.6833562850952148
- 0.6676514148712158
- 0.6742264032363892
- 0.6719756722450256
- 0.6702383756637573
- 0.676039457321167
- 0.6823967695236206
- 0.6974430680274963
- 0.6842511296272278
- 0.699777364730835
- 0.6783981919288635
- 0.6685405373573303
- 0.6848621964454651
- 0.6838828921318054
- 0.6955856680870056
- 0.6938502192497253
- 1.688320279121399
- '...'
intensities:
- 0.0
- 0.0
- 0.0
- 0.0
- 0.0
- 0.0
- 0.0
- 0.0
- 0.0
- 0.0
- 0.0
- 0.0
- 0.0
- 0.0
- 0.0
- 0.0
- 0.0
- 0.0
- 0.0
- 0.0
- 0.0
- 0.0
- 0.0
- 0.0
- 0.0
- 0.0
- 0.0
- 0.0
- 0.0
- 0.0
- 0.0
- 0.0
- 0.0
- 0.0
- 0.0
- 0.0
- 0.0
- 0.0
- 0.0
- 0.0
- 0.0
- 0.0
- 0.0
- 0.0
- 0.0
- 0.0
- 0.0
- 0.0
- 0.0
- 0.0
- 0.0
- 0.0
- 0.0
- 0.0
- 0.0
- 0.0
- 0.0
- 0.0
- 0.0
- 0.0
- 0.0
- 0.0
- 0.0
- 0.0
- 0.0
- 0.0
- 0.0
- 0.0
- 0.0
- 0.0
- 0.0
- 0.0
- 0.0
- 0.0
- 0.0
- 0.0
- 0.0
- 0.0
- 0.0
- 0.0
- 0.0
- 0.0
- 0.0
- 0.0
- 0.0
- 0.0
- 0.0
- 0.0
- 0.0
- 0.0
- 0.0
- 0.0
- 0.0
- 0.0
- 0.0
- 0.0
- 0.0
- 0.0
- 0.0
- 0.0
- 0.0
- 0.0
- 0.0
- 0.0
- 0.0
- 0.0
- 0.0
- 0.0
- 0.0
- 0.0
- 0.0
- 0.0
- 0.0
- 0.0
- 0.0
- 0.0
- 0.0
- 0.0
- 0.0
- 0.0
- 0.0
- 0.0
- 0.0
- 0.0
- 0.0
- 0.0
- 0.0
- 0.0
- '...'
---
header:
  stamp:
    sec: 14558
    nanosec: 536000000
  frame_id: base_scan
angle_min: -3.1415998935699463
angle_max: 3.1415998935699463
angle_increment: 0.008738803677260876
time_increment: 0.0
scan_time: 0.0
range_min: 0.11999999731779099
range_max: 3.5
ranges:
- 0.5431880950927734
- 0.5522998571395874
- 0.5689953565597534
- 0.563514769077301
- 0.38813862204551697
- 0.3955141603946686
- 0.39113202691078186
- 0.3963038921356201
- 0.39186060428619385
- 0.3868786692619324
- 0.3893800675868988
- 0.3664608597755432
- 0.3771419823169708
- 0.3717610239982605
- 0.36640864610671997
- 0.3779219090938568
- 0.354388028383255
- 0.34893035888671875
- 0.35913798213005066
- 0.34834593534469604
- 0.3338330388069153
- 0.34797847270965576
- 0.3459591567516327
- 0.3568353056907654
- 0.312534362077713
- 0.32738420367240906
- 0.3691098690032959
- 0.3451567590236664
- 0.3931276202201843
- 0.4107818901538849
- 0.42613041400909424
- 0.5029734373092651
- 0.49506059288978577
- 0.5186223983764648
- 0.5729092955589294
- 1.3353174924850464
- 1.30997896194458
- 1.3191317319869995
- 1.2920739650726318
- 1.3199068307876587
- 1.3246029615402222
- 1.3208684921264648
- 1.3306915760040283
- 1.3243138790130615
- 1.3131972551345825
- 1.3182556629180908
- 1.2945771217346191
- 1.337306261062622
- 1.324516773223877
- 1.3216047286987305
- 1.3016124963760376
- 1.3173208236694336
- 1.2976425886154175
- 1.304797649383545
- 1.3041234016418457
- 1.3184833526611328
- 1.3244792222976685
- 1.330454707145691
- 1.3167070150375366
- 1.3158347606658936
- 1.3191230297088623
- 1.3095093965530396
- 1.3256374597549438
- 1.3480995893478394
- 1.3122820854187012
- 1.3249691724777222
- 1.3241690397262573
- 1.3209680318832397
- 1.318524956703186
- 1.3232358694076538
- 1.352074384689331
- 1.3381513357162476
- 1.330257773399353
- 1.351481556892395
- 1.3526320457458496
- 1.359635353088379
- 1.370148777961731
- 1.3495275974273682
- 1.3528465032577515
- 1.3703949451446533
- 1.3670451641082764
- 1.3722832202911377
- 1.390285849571228
- 1.3915151357650757
- 1.3858894109725952
- 1.4110167026519775
- 1.4019631147384644
- 1.3988938331604004
- 1.3900649547576904
- 1.3850646018981934
- 1.3996564149856567
- 1.4230002164840698
- 1.4113900661468506
- 1.4214932918548584
- 1.4290006160736084
- 1.422377586364746
- 1.4529491662979126
- 1.4556360244750977
- 1.4611607789993286
- 1.463803768157959
- 1.4703037738800049
- 1.4804414510726929
- 1.4881396293640137
- 1.48987877368927
- 1.4933066368103027
- 1.5126382112503052
- 1.5032734870910645
- 1.5271000862121582
- 1.5278245210647583
- 1.526017665863037
- 0.6752212643623352
- 0.668847918510437
- 0.6711050271987915
- 0.6964751482009888
- 0.6773850321769714
- 0.6705065965652466
- 0.6614288687705994
- 0.6593560576438904
- 0.6656317114830017
- 0.6851760745048523
- 0.6891825795173645
- 0.6731159687042236
- 0.6741787791252136
- 0.6795837879180908
- 0.6848522424697876
- 0.6745603680610657
- 0.6937139630317688
- 1.675607442855835
- '...'
intensities:
- 0.0
- 0.0
- 0.0
- 0.0
- 0.0
- 0.0
- 0.0
- 0.0
- 0.0
- 0.0
- 0.0
- 0.0
- 0.0
- 0.0
- 0.0
- 0.0
- 0.0
- 0.0
- 0.0
- 0.0
- 0.0
- 0.0
- 0.0
- 0.0
- 0.0
- 0.0
- 0.0
- 0.0
- 0.0
- 0.0
- 0.0
- 0.0
- 0.0
- 0.0
- 0.0
- 0.0
- 0.0
- 0.0
- 0.0
- 0.0
- 0.0
- 0.0
- 0.0
- 0.0
- 0.0
- 0.0
- 0.0
- 0.0
- 0.0
- 0.0
- 0.0
- 0.0
- 0.0
- 0.0
- 0.0
- 0.0
- 0.0
- 0.0
- 0.0
- 0.0
- 0.0
- 0.0
- 0.0
- 0.0
- 0.0
- 0.0
- 0.0
- 0.0
- 0.0
- 0.0
- 0.0
- 0.0
- 0.0
- 0.0
- 0.0
- 0.0
- 0.0
- 0.0
- 0.0
- 0.0
- 0.0
- 0.0
- 0.0
- 0.0
- 0.0
- 0.0
- 0.0
- 0.0
- 0.0
- 0.0
- 0.0
- 0.0
- 0.0
- 0.0
- 0.0
- 0.0
- 0.0
- 0.0
- 0.0
- 0.0
- 0.0
- 0.0
- 0.0
- 0.0
- 0.0
- 0.0
- 0.0
- 0.0
- 0.0
- 0.0
- 0.0
- 0.0
- 0.0
- 0.0
- 0.0
- 0.0
- 0.0
- 0.0
- 0.0
- 0.0
- 0.0
- 0.0
- 0.0
- 0.0
- 0.0
- 0.0
- 0.0
- 0.0
- '...'
---
header:
  stamp:
    sec: 14558
    nanosec: 738000000
  frame_id: base_scan
angle_min: -3.1415998935699463
angle_max: 3.1415998935699463
angle_increment: 0.008738803677260876
time_increment: 0.0
scan_time: 0.0
range_min: 0.11999999731779099
range_max: 3.5
ranges:
- 0.5196171402931213
- 0.5366379022598267
- 0.5613806843757629
- 0.5716344118118286
- 0.41634806990623474
- 0.4187852144241333
- 0.4012809991836548
- 0.3920099139213562
- 0.38249239325523376
- 0.3775842785835266
- 0.3838145434856415
- 0.38765043020248413
- 0.3531014919281006
- 0.3886760175228119
- 0.3503112196922302
- 0.3630335032939911
- 0.37213021516799927
- 0.3605319559574127
- 0.3556008040904999
- 0.34876319766044617
- 0.3560108244419098
- 0.3317202031612396
- 0.34968388080596924
- 0.3519704043865204
- 0.35179945826530457
- 0.33116576075553894
- 0.3605588376522064
- 0.3688482642173767
- 0.37674540281295776
- 0.41672536730766296
- 0.4445832073688507
- 0.4798305034637451
- 0.47535741329193115
- 0.5204111337661743
- 0.5582988262176514
- 1.3103749752044678
- 1.3274130821228027
- 1.3282886743545532
- 1.3181945085525513
- 1.3032183647155762
- 1.3188022375106812
- 1.3140323162078857
- 1.3182424306869507
- 1.3078590631484985
- 1.3108375072479248
- 1.3111474514007568
- 1.326047658920288
- 1.326396107673645
- 1.3077069520950317
- 1.3065155744552612
- 1.3079190254211426
- 1.3216265439987183
- 1.308876872062683
- 1.3043850660324097
- 1.3175930976867676
- 1.3363875150680542
- 1.323925256729126
- 1.3356212377548218
- 1.3358469009399414
- 1.3027665615081787
- 1.317679524421692
- 1.3280950784683228
- 1.3300062417984009
- 1.3247392177581787
- 1.3119683265686035
- 1.3408358097076416
- 1.3251683712005615
- 1.3365486860275269
- 1.3465389013290405
- 1.3303731679916382
- 1.3489488363265991
- 1.3320728540420532
- 1.3428148031234741
- 1.367005467414856
- 1.3648512363433838
- 1.3521212339401245
- 1.3424633741378784
- 1.3435808420181274
- 1.3567153215408325
- 1.3705440759658813
- 1.3895001411437988
- 1.3676027059555054
- 1.3883177042007446
- 1.3917949199676514
- 1.3898236751556396
- 1.3925496339797974
- 1.3874034881591797
- 1.3996161222457886
- 1.4081202745437622
- 1.4076536893844604
- 1.4229097366333008
- 1.4290790557861328
- 1.4234468936920166
- 1.434741735458374
- 1.4330408573150635
- 1.4389653205871582
- 1.434523582458496
- 1.4486017227172852
- 1.4735100269317627
- 1.45888090133667
- 1.4571576118469238
- 1.4784842729568481
- 1.488523244857788
- 1.4883441925048828
- 1.4887877702713013
- 1.5019216537475586
- 1.490960955619812
- 1.5235364437103271
- 1.5433926582336426
- 1.5309476852416992
- 0.6745657324790955
- 0.662283182144165
- 0.6712506413459778
- 0.6701763272285461
- 0.6824988722801208
- 0.6753951907157898
- 0.676056444644928
- 0.6601930260658264
- 0.6768632531166077
- 0.6793895959854126
- 0.6896945238113403
- 0.6726528406143188
- 0.6697548627853394
- 0.6799356341362
- 0.6786177158355713
- 0.677006721496582
- 0.6980025172233582
- 1.6870323419570923
- '...'
intensities:
- 0.0
- 0.0
- 0.0
- 0.0
- 0.0
- 0.0
- 0.0
- 0.0
- 0.0
- 0.0
- 0.0
- 0.0
- 0.0
- 0.0
- 0.0
- 0.0
- 0.0
- 0.0
- 0.0
- 0.0
- 0.0
- 0.0
- 0.0
- 0.0
- 0.0
- 0.0
- 0.0
- 0.0
- 0.0
- 0.0
- 0.0
- 0.0
- 0.0
- 0.0
- 0.0
- 0.0
- 0.0
- 0.0
- 0.0
- 0.0
- 0.0
- 0.0
- 0.0
- 0.0
- 0.0
- 0.0
- 0.0
- 0.0
- 0.0
- 0.0
- 0.0
- 0.0
- 0.0
- 0.0
- 0.0
- 0.0
- 0.0
- 0.0
- 0.0
- 0.0
- 0.0
- 0.0
- 0.0
- 0.0
- 0.0
- 0.0
- 0.0
- 0.0
- 0.0
- 0.0
- 0.0
- 0.0
- 0.0
- 0.0
- 0.0
- 0.0
- 0.0
- 0.0
- 0.0
- 0.0
- 0.0
- 0.0
- 0.0
- 0.0
- 0.0
- 0.0
- 0.0
- 0.0
- 0.0
- 0.0
- 0.0
- 0.0
- 0.0
- 0.0
- 0.0
- 0.0
- 0.0
- 0.0
- 0.0
- 0.0
- 0.0
- 0.0
- 0.0
- 0.0
- 0.0
- 0.0
- 0.0
- 0.0
- 0.0
- 0.0
- 0.0
- 0.0
- 0.0
- 0.0
- 0.0
- 0.0
- 0.0
- 0.0
- 0.0
- 0.0
- 0.0
- 0.0
- 0.0
- 0.0
- 0.0
- 0.0
- 0.0
- 0.0
- '...'
---
